City_ID,City,Lat,Lng,Max Temp,Humidity,Cloudiness,Wind Speed,Country,Date
0,hawaiian paradise park,19.5933,-154.9731,25.96,80,40,2.57,US,1686597659
1,isafjordur,66.0755,-23.124,12.02,54,20,7.2,IS,1686597659
2,grytviken,-54.2811,-36.5092,-3.3,91,28,4.39,GS,1686597194
3,alamos,27.0167,-108.9333,36.18,14,100,3.06,MX,1686597660
4,oodweyne,9.4092,45.064,26.13,54,100,6.58,SO,1686597660
5,adamstown,-25.066,-130.1015,19.98,63,22,3.05,PN,1686597195
6,diboll,31.1871,-94.781,34.01,65,0,0.0,US,1686597660
7,dunedin,-45.8742,170.5036,10.45,78,100,2.68,NZ,1686597660
8,uturoa,-16.7333,-151.4333,26.9,73,8,8.48,PF,1686597661
9,tarko-sale,64.9225,77.785,3.93,96,100,8.08,RU,1686597661
10,zhigalovo,54.8097,105.1578,13.31,48,100,1.63,RU,1686597661
11,baswa,27.15,76.5833,36.29,26,0,4.81,IN,1686597661
12,port-aux-francais,-49.35,70.2167,6.45,92,100,13.36,TF,1686597662
13,aasiaat,68.7098,-52.8699,0.92,78,18,13.16,GL,1686597662
14,zhicheng,30.2956,111.5047,22.16,84,100,2.4,CN,1686597662
15,longyearbyen,78.2186,15.6401,2.91,81,75,6.17,SJ,1686597662
16,turabah,21.2141,41.6331,29.33,22,8,7.63,SA,1686597663
17,carthage,36.8611,10.3316,23.74,73,20,2.06,TN,1686597663
18,kokoda,-8.8785,147.7407,22.53,96,63,0.65,PG,1686597663
19,margaret river,-33.95,115.0667,15.5,72,89,7.08,AU,1686597191
20,midvagur,62.0511,-7.1939,11.46,76,0,4.12,FO,1686597664
21,vilyuchinsk,52.9306,158.4028,9.15,64,0,3.6,RU,1686597664
22,levuka,50.1834,-105.4011,26.9,26,75,3.6,CA,1686597664
23,port lincoln,-34.7333,135.8667,13.4,67,72,10.51,AU,1686597664
24,vila velha,-20.3297,-40.2925,27.97,81,20,5.14,BR,1686597664
25,st. john's,47.5649,-52.7093,8.77,86,100,5.66,CA,1686597273
26,hadibu,12.65,54.0333,28.38,78,100,7.51,YE,1686597665
27,san patricio,28.017,-97.5169,36.4,41,0,7.53,US,1686597222
28,blackmans bay,-43.0167,147.3167,5.97,90,52,3.17,AU,1686597665
29,tsiombe,-25.3,45.4833,19.32,91,16,2.52,MG,1686597279
30,bireun,5.203,96.7009,25.94,80,100,2.07,ID,1686597666
31,wailua homesteads,22.0669,-159.378,26.24,86,100,5.14,US,1686597429
32,waitangi,-43.9535,-176.5597,9.9,76,94,7.85,NZ,1686597666
33,pamandzi,-12.7967,45.2794,24.88,78,0,2.57,YT,1686597666
34,albany,42.6001,-73.9662,28.68,48,100,1.79,US,1686597667
35,georgetown,5.4112,100.3354,29.97,84,20,2.57,MY,1686597667
36,coquimbo,-29.9533,-71.3436,12.85,71,40,5.14,CL,1686597232
37,colonia,50.9333,6.95,27.17,32,0,1.54,DE,1686597167
38,shimanovsk,52.0,127.7,16.16,86,31,0.56,RU,1686597668
39,ketchikan,55.3422,-131.6461,14.26,82,100,3.09,US,1686597668
40,ilulissat,69.2167,-51.1,3.01,87,75,4.63,GL,1686597668
41,ghat,24.9647,10.1728,36.52,11,0,5.44,LY,1686597668
42,ardestan,33.3761,52.3694,28.44,30,25,3.51,IR,1686597668
43,alakurtti,66.9672,30.3491,16.79,52,98,5.83,RU,1686597669
44,anadyr,64.75,177.4833,13.28,58,0,3.0,RU,1686597670
45,sabha,27.0377,14.4283,31.89,22,0,5.27,LY,1686597670
46,hermanus,-34.4187,19.2345,13.78,76,100,9.64,ZA,1686597670
47,manokwari,-0.8667,134.0833,25.16,85,99,1.83,ID,1686597316
48,kayangel,8.0823,134.7173,26.67,88,100,6.09,PW,1686597671
49,west island,-12.1568,96.8225,26.99,78,75,9.66,CC,1686597671
50,hammerfest,70.6634,23.6821,8.25,76,75,8.23,NO,1686597671
51,antofagasta,-23.65,-70.4,16.43,72,25,6.09,CL,1686597671
52,karratha,-20.7377,116.8463,20.15,38,0,4.11,AU,1686597672
53,constantia,44.1833,28.65,17.61,69,77,7.79,RO,1686597672
54,puerto ayora,-0.7393,-90.3518,31.98,86,44,3.13,EC,1686597672
55,edinburgh of the seven seas,-37.0676,-12.3116,17.0,89,100,17.07,SH,1686597672
56,vilyuysk,63.7553,121.6247,2.86,71,0,2.1,RU,1686597673
57,pekan,3.4836,103.3996,26.06,92,19,1.88,MY,1686597673
58,wynyard,-41.0,145.7167,11.66,84,100,4.44,AU,1686597673
59,dergachi,51.2328,48.7659,14.72,66,100,9.48,RU,1686597673
60,garhwa,24.1833,83.8167,33.91,30,37,2.24,IN,1686597674
61,mount gambier,-37.8333,140.7667,9.55,96,100,4.21,AU,1686597674
62,mangrol,21.1167,70.1167,28.9,84,100,14.03,IN,1686597674
63,selfoss,63.9331,-20.9971,11.69,64,97,4.2,IS,1686597306
64,chenaran,36.6455,59.1212,23.88,23,5,1.19,IR,1686597675
65,ushuaia,-54.8,-68.3,6.79,75,40,16.98,AR,1686597675
66,faya-largeau,17.9257,19.1043,38.07,20,0,1.62,TD,1686597239
67,filingue,14.3521,3.3168,30.1,54,100,1.5,NE,1686597675
68,ixtapa,20.7,-105.2,30.57,62,0,5.66,MX,1686597676
69,whitehorse,60.7161,-135.0538,15.43,26,40,8.23,CA,1686597640
70,jackson,42.4165,-122.8345,28.75,40,0,1.54,US,1686597676
71,utrik,11.2278,169.8474,27.43,82,71,8.57,MH,1686597676
72,nagqu,31.5,92.0,6.22,77,100,3.0,CN,1686597225
73,lodja,-3.4833,23.4333,23.94,69,87,1.33,CD,1686597677
74,ribeira grande,38.5167,-28.7,20.22,94,75,4.92,PT,1686597677
75,avarua,-21.2078,-159.775,24.03,94,100,2.06,CK,1686597677
76,ancud,-41.8697,-73.8203,8.37,70,4,2.11,CL,1686597677
77,ibiruba,-28.6275,-53.0897,10.87,53,83,4.85,BR,1686597678
78,kismayo,-0.3582,42.5454,25.86,79,54,6.69,SO,1686597249
79,polyarnyy,69.1989,33.4478,12.79,60,100,1.4,RU,1686597679
80,jamestown,42.097,-79.2353,14.77,82,100,6.69,US,1686597679
81,paracuru,-3.41,-39.0306,27.84,72,25,5.72,BR,1686597680
82,acapulco de juarez,16.8634,-99.8901,32.9,62,40,5.66,MX,1686597617
83,puerto natales,-51.7236,-72.4875,7.25,57,40,7.2,CL,1686597195
84,bikenibeu village,1.3673,173.1241,27.98,89,75,0.51,KI,1686597680
85,flying fish cove,-10.4217,105.6791,25.82,88,100,5.66,CX,1686597681
86,harstad,68.799,16.5293,11.2,86,46,11.18,NO,1686597681
87,papatowai,-46.5619,169.4708,10.23,88,100,4.87,NZ,1686597681
88,howard springs,-12.497,131.047,19.95,56,91,2.64,AU,1686597681
89,port elizabeth,-33.918,25.5701,15.16,71,0,10.8,ZA,1686597682
90,yellowknife,62.456,-114.3525,7.29,65,75,4.63,CA,1686597422
91,saint-philippe,-21.3585,55.7679,21.77,79,0,3.23,RE,1686597322
92,mawu,29.5923,107.3139,19.1,83,23,1.07,CN,1686597682
93,tangalle,6.024,80.7911,25.09,85,91,5.94,LK,1686597298
94,taroa,8.7058,171.2275,28.18,80,99,8.13,MH,1686597683
95,tiksi,71.6872,128.8694,1.16,89,13,3.11,RU,1686597683
96,olonkinbyen,70.9221,-8.7187,1.16,87,95,4.84,SJ,1686597683
97,cassilandia,-19.1133,-51.7342,30.06,38,74,3.16,BR,1686597683
98,yemetsk,63.4721,41.7941,16.46,62,100,3.74,RU,1686597684
99,vytegra,61.0064,36.4481,12.4,65,16,1.7,RU,1686597684
100,margherita,27.2833,95.6833,23.21,97,97,0.78,IN,1686597684
101,nahiyat ash shinafiyah,31.5874,44.6602,37.64,15,0,3.64,IQ,1686597684
102,nadi,-17.8,177.4167,20.0,94,40,2.06,FJ,1686597684
103,chamonix-mont-blanc,45.9238,6.8693,22.44,87,100,1.2,FR,1686597685
104,cabedelo,-6.9811,-34.8339,26.37,80,1,5.62,BR,1686597685
105,college,64.8569,-147.8028,16.18,47,75,6.17,US,1686597685
106,enewetak,11.3474,162.3373,27.65,83,43,8.03,MH,1686597677
107,macia,-25.0269,33.0989,20.15,46,7,2.9,MZ,1686597686
108,yuzhno-kurilsk,44.0306,145.8556,11.14,99,100,3.59,RU,1686597686
109,ternate,0.8,127.4,26.59,82,100,0.25,ID,1686597686
110,bilibino,68.0546,166.4372,11.6,92,100,2.86,RU,1686597686
111,jena,50.9333,11.5833,21.87,74,0,3.68,DE,1686597611
112,saipan,15.1355,145.701,28.39,100,40,5.66,MP,1686597687
113,bethel,41.3712,-73.414,26.23,71,75,4.63,US,1686597398
114,myjava,48.7588,17.5687,15.43,1,100,4.21,SK,1686597687
115,ulladulla,-35.35,150.4667,10.8,78,4,2.3,AU,1686597250
116,sant'antioco,39.0664,8.4522,21.96,78,8,3.25,IT,1686597688
117,fort bragg,35.139,-79.006,31.08,56,75,6.17,US,1686597230
118,ust-nera,64.5667,143.2,14.61,92,98,3.28,RU,1686597688
119,susuman,62.7833,148.1667,17.65,59,100,1.43,RU,1686597688
120,nouadhibou,20.931,-17.0347,23.99,69,0,8.75,MR,1686597229
121,mizdah,31.4451,12.9801,27.43,33,0,5.18,LY,1686597689
122,buala,-8.145,159.5921,26.87,83,81,2.25,SB,1686597690
123,tamazunchale,21.2667,-98.7833,35.75,45,5,3.31,MX,1686597690
124,severo-yeniseyskiy,60.3725,93.0408,8.79,56,100,2.73,RU,1686597690
125,iqaluit,63.7506,-68.5145,1.85,59,100,7.2,CA,1686597691
126,iskateley,67.6803,53.1512,12.4,77,100,5.89,RU,1686597597
127,nadym,65.5333,72.5167,1.18,85,100,6.97,RU,1686597299
128,danshui,22.7984,114.4672,26.95,85,100,0.84,CN,1686597691
129,nar'yan-mar,67.6713,53.087,12.25,78,100,5.96,RU,1686597691
130,talnakh,69.4865,88.3972,7.34,96,100,3.45,RU,1686597692
131,karagay,58.2667,54.9368,6.68,71,8,1.88,RU,1686597692
132,san julian,21.0167,-102.1667,31.4,17,0,2.14,MX,1686597277
133,stanley,54.868,-1.6985,19.3,74,0,3.6,GB,1686597692
134,vangaindrano,-23.35,47.6,19.47,94,8,2.32,MG,1686597692
135,dongkan,33.9997,119.8308,19.46,66,100,1.54,CN,1686597693
136,basco,20.4487,121.9702,27.28,89,100,12.21,PH,1686597693
137,phan rang-thap cham,11.5667,108.9833,26.32,82,100,3.09,VN,1686597693
138,mont-dore,-22.2833,166.5833,20.0,99,0,2.39,NC,1686597693
139,rongelap,11.1635,166.8941,27.65,82,76,9.22,MH,1686597265
140,vorgashor,67.5833,63.95,3.51,54,88,1.34,RU,1686597694
141,alofi,-19.0595,-169.9187,22.94,94,75,2.06,NU,1686597694
142,assomada,15.1,-23.6833,25.75,75,100,5.74,CV,1686597694
143,fortuna,40.5982,-124.1573,18.29,83,40,4.63,US,1686597695
144,berezovyy,51.6667,135.7,9.52,91,9,1.05,RU,1686597695
145,tobruk,32.0836,23.9764,22.09,78,0,5.41,LY,1686597695
146,magadan,59.5667,150.8,8.63,94,100,2.35,RU,1686597695
147,douglas,41.3,-96.167,24.41,37,0,3.6,US,1686597695
148,keflavik,64.0049,-22.5624,10.24,66,75,3.09,IS,1686597696
149,pangai,-19.8,-174.35,24.06,83,75,6.17,TO,1686597332
150,badger,64.8,-147.5333,16.14,47,75,6.17,US,1686597696
151,vallenar,-28.5708,-70.7581,17.25,50,0,3.04,CL,1686597588
152,hamilton,39.1834,-84.5333,20.93,68,100,6.69,US,1686597561
153,mejit,10.2753,170.8646,27.86,82,100,8.68,MH,1686597677
154,sabanagrande,10.7912,-74.7606,33.05,66,20,3.09,CO,1686597697
155,murrells inlet,33.551,-79.0414,32.22,82,20,8.75,US,1686597697
156,usinsk,65.9939,57.5281,6.99,61,100,5.59,RU,1686597697
157,saint-vincent-de-tyrosse,43.6603,-1.308,22.72,97,59,1.92,FR,1686597698
158,belyy yar,53.6039,91.3903,10.94,100,2,1.0,RU,1686597698
159,lerwick,60.1545,-1.1494,15.0,90,94,2.5,GB,1686597272
160,kailua-kona,19.6406,-155.9956,26.98,83,40,3.6,US,1686597698
161,el tigre,8.8875,-64.2454,29.75,56,100,3.44,VE,1686597698
162,chita,52.0333,113.55,13.94,72,100,3.0,RU,1686597699
163,minsk mazowiecki,52.1794,21.5725,16.33,74,93,5.03,PL,1686597699
164,sola,-13.8833,167.55,26.91,75,97,6.18,VU,1686597699
165,petropavlovsk-kamchatsky,53.0452,158.6483,8.33,76,0,4.0,RU,1686597699
166,lefka,35.1106,32.8506,21.67,79,0,2.44,CY,1686597700
167,luderitz,-26.6481,15.1594,14.01,83,0,4.93,NA,1686597700
168,port mathurin,-19.6833,63.4167,25.07,69,77,8.1,MU,1686597700
169,khandyga,62.6667,135.6,8.92,52,100,2.46,RU,1686597701
170,tazacorte,28.629,-17.9293,24.53,70,75,6.69,ES,1686597701
171,chulym,55.0997,80.9572,8.56,86,98,1.74,RU,1686597701
172,chekmagush,55.1319,54.6556,9.99,66,100,3.13,RU,1686597701
173,charles town,39.289,-77.8597,22.44,92,100,4.43,US,1686597702
174,kasongo,-4.45,26.6667,24.03,59,46,1.01,CD,1686597702
175,hithadhoo,-0.6,73.0833,28.47,71,100,1.01,MV,1686597702
176,vadso,70.0744,29.7487,17.49,47,0,4.63,NO,1686597702
177,boyolangu,-8.1181,111.8935,23.97,93,64,2.98,ID,1686597702
178,bredasdorp,-34.5322,20.0403,12.74,72,100,7.75,ZA,1686597704
179,tuy hoa,13.0833,109.3,28.22,70,100,6.32,VN,1686597704
180,talcahuano,-36.7167,-73.1167,14.82,47,0,7.2,CL,1686597616
181,namibe,-15.1961,12.1522,18.15,71,3,3.42,AO,1686597704
182,christchurch,-43.5333,172.6333,6.38,90,75,1.54,NZ,1686597164
183,cadale,2.7603,46.3222,26.26,85,99,9.71,SO,1686597705
184,codrington,-38.2667,141.9667,10.29,75,20,7.23,AU,1686597705
185,okha,53.5739,142.9478,5.55,98,100,1.5,RU,1686597298
186,kavieng,-2.5744,150.7967,28.0,77,98,5.57,PG,1686597706
187,asosa,10.0667,34.5333,16.93,87,100,0.97,ET,1686597706
188,saint-francois,46.4154,3.9054,18.71,88,0,1.03,FR,1686597706
189,la libertad,-2.2333,-80.9,26.66,78,46,4.5,EC,1686597706
190,afaahiti,-17.75,-149.2833,25.93,71,56,7.82,PF,1686597706
191,kralendijk,12.15,-68.2667,31.99,58,20,9.26,BQ,1686597707
192,sisimiut,66.9395,-53.6735,1.08,82,18,9.26,GL,1686597201
193,santa ana,33.7456,-117.8678,22.01,72,100,5.14,US,1686597586
194,twon-brass,4.3151,6.2418,27.08,79,100,4.96,NG,1686597258
195,leava,-14.3,-178.1667,27.67,79,100,7.84,WF,1686597707
196,masterton,-40.9597,175.6575,4.01,95,1,0.84,NZ,1686597708
197,vorkuta,67.5,64.0,3.73,53,90,1.29,RU,1686597708
198,mishawaka,41.662,-86.1586,15.8,68,100,5.14,US,1686597708
199,broome,42.2506,-75.833,22.47,83,100,6.17,US,1686597307
200,edeia,-17.3383,-49.9314,31.86,27,47,1.35,BR,1686597709
201,ballina,-28.8667,153.5667,12.66,90,9,2.18,AU,1686597709
202,taulaga,-11.0553,-171.0883,28.08,79,13,6.86,AS,1686597709
203,lebu,-37.6167,-73.65,11.14,68,0,7.7,CL,1686597709
204,alice springs,-23.7,133.8833,8.75,61,1,2.57,AU,1686597316
205,atafu village,-8.5421,-172.5159,28.36,76,27,5.38,TK,1686597710
206,vizinga,61.0749,50.1031,11.61,68,94,4.06,RU,1686597710
207,puerto lempira,15.2667,-83.7667,32.43,63,42,4.65,HN,1686597710
208,invercargill,-46.4,168.35,9.41,89,99,2.06,NZ,1686597710
209,matehuala,23.65,-100.65,32.96,17,0,3.28,MX,1686597711
210,qarazhal,48.0078,70.7903,20.32,35,1,4.54,KZ,1686597312
211,volnovakha,47.601,37.4967,14.16,94,22,3.07,UA,1686597711
212,natal,-5.795,-35.2094,27.36,83,75,5.66,BR,1686597711
213,nichinan,31.6,131.3667,21.82,95,100,1.15,JP,1686597712
214,thunder bay,48.4001,-89.3168,21.95,37,75,4.63,CA,1686597601
215,la passe,45.5549,-0.8967,19.46,89,89,5.28,FR,1686597712
216,thompson,55.7435,-97.8558,13.09,71,100,4.12,CA,1686597712
217,revda,56.801,59.9303,4.5,70,4,1.5,RU,1686597291
218,tura,25.5198,90.2201,23.74,92,4,1.8,IN,1686597446
219,yarmouth,41.7057,-70.2286,26.26,75,0,4.63,US,1686597713
220,nadvoitsy,63.8667,34.3167,15.89,48,100,3.92,RU,1686597714
221,pak phanang,8.3511,100.202,27.01,80,100,2.96,TH,1686597714
222,guerrero negro,27.9769,-114.0611,20.54,57,0,7.96,MX,1686597714
223,remire-montjoly,4.9167,-52.2667,29.02,74,75,5.14,GF,1686597714
224,padre bernardo,-15.35,-48.5,28.88,35,80,2.67,BR,1686597715
225,ripley,53.0333,-1.4,19.78,90,100,4.88,GB,1686597715
226,udachny,66.4167,112.4,6.92,48,47,3.11,RU,1686597715
227,ulsteinvik,62.3432,5.8487,16.5,62,100,3.13,NO,1686597715
228,santiago de cao,-7.9589,-79.2392,24.07,73,0,6.69,PE,1686597715
229,kodinsk,58.6881,99.1844,10.02,59,100,1.34,RU,1686597716
230,al khaburah,23.9886,57.0984,33.86,46,81,1.89,OM,1686597716
231,arraial do cabo,-22.9661,-42.0278,23.98,88,0,4.12,BR,1686597716
232,cartagena del chaira,1.3349,-74.8429,30.15,65,78,1.7,CO,1686597716
233,plettenberg bay,-34.0527,23.3716,13.47,71,97,7.49,ZA,1686597717
234,sierre,46.2919,7.5356,25.71,44,100,2.06,CH,1686597717
235,asha,54.9973,57.2722,11.77,63,100,1.79,RU,1686597717
236,salaverry,-8.2333,-78.9667,23.21,76,0,6.44,PE,1686597717
237,weno,7.4515,151.8468,27.97,83,75,5.14,FM,1686597717
238,san antonio de pale,-1.4014,5.6325,24.75,88,88,2.97,GQ,1686597718
239,andkhoy,36.9529,65.1238,30.56,16,38,4.15,AF,1686597718
240,danja,11.3764,7.5625,24.86,73,67,3.57,NG,1686597718
241,vernon,50.2581,-119.2691,30.52,32,9,1.54,CA,1686597556
242,grabouw,-34.1515,19.0151,13.03,87,100,5.52,ZA,1686597718
243,woodbridge,40.5576,-74.2846,29.54,68,100,6.17,US,1686597719
244,jayapura,-2.5333,140.7,24.66,89,100,1.87,ID,1686597719
245,cabugao,17.7931,120.4578,24.92,96,100,4.26,PH,1686597719
246,essaouira,31.5125,-9.77,23.72,78,0,5.66,MA,1686597207
247,pitimbu,-7.4706,-34.8086,26.33,75,2,5.11,BR,1686597719
248,gargalianoi,37.0667,21.6333,20.75,86,6,3.77,GR,1686597720
249,salalah,17.0151,54.0924,30.05,84,20,2.06,OM,1686597720
250,ebersbach,51.0167,14.5833,17.75,68,4,2.38,DE,1686597720
251,pervomayskoye,43.919,46.7102,22.76,43,96,2.11,RU,1686597720
252,colares,38.7992,-9.4469,20.42,84,75,6.71,PT,1686597233
253,lihue,21.9789,-159.3672,26.58,83,100,5.14,US,1686597721
254,sur,22.5667,59.5289,31.7,55,100,2.99,OM,1686597250
255,prince rupert,54.3161,-130.3201,13.05,89,100,5.14,CA,1686597721
256,mahajanga,-15.7167,46.3167,24.01,88,20,2.57,MG,1686597722
257,hailey,43.5196,-114.3153,22.16,62,0,3.58,US,1686597722
258,tolanaro,-25.0319,46.9987,23.04,88,20,6.17,MG,1686597722
259,kone,-21.0595,164.8658,18.67,80,28,2.0,NC,1686597722
260,hirara,24.8,125.2833,26.15,100,75,2.57,JP,1686597723
261,akureyri,65.6835,-18.0878,19.0,36,100,1.3,IS,1686596979
262,malvan,16.0667,73.4667,28.58,80,26,6.42,IN,1686597290
263,gadzhiyevo,69.2551,33.3362,12.69,60,100,2.02,RU,1686597724
264,nikolayevsk-on-amure,53.1406,140.73,8.95,97,100,0.8,RU,1686597724
265,teknaf,20.8624,92.3058,26.58,89,100,4.27,BD,1686597724
266,vallegrande,-18.4897,-64.1069,8.92,91,100,1.52,BO,1686597724
267,bubaque,11.2833,-15.8333,27.65,81,83,7.05,GW,1686597498
268,ada,43.4166,-116.1262,25.34,51,0,2.57,US,1686597725
269,charters towers,-20.1,146.2667,16.57,96,24,3.64,AU,1686597725
270,tazovsky,67.4667,78.7,1.09,99,100,7.41,RU,1686597726
271,mana,5.6592,-53.7767,27.91,83,46,4.11,GF,1686597199
272,xuddur,4.1213,43.8894,25.27,50,32,7.15,SO,1686597726
273,minamata,32.2167,130.4,21.23,94,100,1.42,JP,1686597727
274,kingston,17.997,-76.7936,33.47,61,20,10.8,JM,1686597626
275,bukene,-4.2333,32.8833,20.49,45,11,1.27,TZ,1686597727
276,happy valley-goose bay,53.3168,-60.3315,20.17,42,75,3.09,CA,1686597728
277,emerald,-23.5333,148.1667,15.25,91,13,2.44,AU,1686597077
278,stephenville,32.2207,-98.2023,24.07,73,100,5.66,US,1686597728
279,lib,8.3122,167.3766,28.45,79,100,8.8,MH,1686597728
280,pisco,-13.7,-76.2167,24.03,57,0,12.35,PE,1686597729
281,inawashiro,37.5667,140.1167,16.53,99,100,1.22,JP,1686597729
282,valparaiso,-33.0393,-71.6273,14.44,63,0,4.63,CL,1686597724
283,qaqortoq,60.7167,-46.0333,9.09,58,100,2.69,GL,1686597729
284,mohr,54.3528,9.7167,22.97,44,0,6.17,DE,1686597730
285,acarau,-2.8856,-40.12,28.23,76,1,7.31,BR,1686597730
286,kenai,60.5544,-151.2583,10.08,65,40,4.12,US,1686597652
287,lompoc,34.6391,-120.4579,20.38,79,100,3.6,US,1686597612
288,farafangana,-22.8167,47.8333,20.8,90,7,3.03,MG,1686597731
289,kill devil hills,36.0307,-75.676,25.0,87,100,11.83,US,1686597085
290,trairi,-3.2778,-39.2689,28.4,71,12,5.49,BR,1686597701
291,shevchenko,48.5,35.0,13.55,87,98,5.47,UA,1686597732
292,yaren,-0.5472,166.916,28.2,77,55,3.24,NR,1686597732
293,ghardaia,32.4909,3.6735,35.64,12,0,6.69,DZ,1686597732
294,zhuanghe,39.7008,122.9911,16.81,83,94,1.44,CN,1686597733
295,wedi,-7.7431,110.5794,23.11,95,100,1.71,ID,1686597733
296,cooper's town,26.8667,-77.5167,27.79,76,54,7.92,BS,1686597733
297,okhotsk,59.3833,143.3,7.19,92,100,3.36,RU,1686597272
298,aras-asan,8.8908,126.3033,26.01,88,96,1.6,PH,1686597734
299,chonchi,-42.6128,-73.8092,9.51,74,18,1.56,CL,1686597734
300,kodiak,57.79,-152.4072,9.73,57,75,4.12,US,1686597734
301,soio,-6.1349,12.3689,23.39,88,100,3.67,AO,1686597735
302,sao joao da barra,-21.6403,-41.0511,28.05,76,0,5.54,BR,1686597735
303,tarauaca,-8.1614,-70.7656,26.33,87,93,0.82,BR,1686597735
304,narvik,68.4384,17.4272,9.66,78,97,4.63,NO,1686597736
305,chinchilla,-26.75,150.6333,11.94,91,0,3.92,AU,1686597736
306,businga,3.3333,20.8833,22.36,97,44,0.7,CD,1686597736
307,kirakira,-10.4544,161.9205,26.21,86,19,2.86,SB,1686597736
308,borogontsy,62.6683,131.1683,4.21,68,100,3.22,RU,1686597737
309,urangan,-25.3,152.9,17.24,88,5,3.45,AU,1686597737
310,turochak,52.2576,87.1224,10.31,96,99,1.39,RU,1686597737
311,amqui,48.4638,-67.4313,25.28,45,0,2.54,CA,1686597737
312,newman,37.3138,-121.0208,25.59,32,30,0.98,US,1686597244
313,mount isa,-20.7333,139.5,9.87,71,40,1.54,AU,1686597738
314,progreso,21.2833,-89.6667,37.06,62,0,5.82,MX,1686597738
315,malango,-2.9627,119.9001,18.98,97,74,0.75,ID,1686597308
316,sitka,57.0531,-135.33,11.94,76,75,4.12,US,1686597739
317,bandarbeyla,9.4942,50.8122,26.04,81,100,14.63,SO,1686597739
318,chamical,-30.36,-66.314,14.07,25,100,1.82,AR,1686597740
319,salekhard,66.53,66.6019,4.31,60,15,2.83,RU,1686597740
320,port alfred,-33.5906,26.891,13.99,76,100,3.13,ZA,1686597740
321,changji,44.0167,87.3167,23.44,56,0,1.0,CN,1686597740
322,mathba,22.2855,89.9629,28.9,85,100,3.45,BD,1686597740
323,vuktyl,63.8567,57.3094,6.79,63,100,2.57,RU,1686597741
324,khanty-mansiysk,61.0042,69.0019,9.06,61,0,1.0,RU,1686597741
325,launceston,-41.45,147.1667,7.86,96,75,2.57,AU,1686597741
326,ghormach,35.7306,63.7826,27.7,18,0,1.69,AF,1686597741
327,krutinka,56.0055,71.5113,9.06,70,100,3.24,RU,1686597742
328,nuuk,64.1835,-51.7216,2.34,93,75,11.18,GL,1686597742
329,ponta delgada,37.7333,-25.6667,19.4,94,75,8.75,PT,1686597743
330,terrace,54.5163,-128.6035,21.23,45,75,3.6,CA,1686597743
331,guatire,10.4762,-66.5427,29.0,87,66,1.64,VE,1686597743
332,lorengau,-2.0226,147.2712,27.58,82,24,3.99,PG,1686597743
333,trancas,-26.2314,-65.2803,12.26,24,97,2.93,AR,1686597744
334,east london,-33.0153,27.9116,15.64,67,100,8.36,ZA,1686597744
335,caleta olivia,-46.4393,-67.5281,9.89,38,17,5.31,AR,1686597744
336,thulamahashi,-24.7246,31.1994,21.28,31,97,3.55,ZA,1686597744
337,east florence,34.8095,-87.6495,24.95,65,100,4.63,US,1686597745
338,maamba,-17.3667,27.15,20.29,35,15,1.68,ZM,1686597745
339,east ballina,-28.8667,153.5833,12.67,89,8,2.27,AU,1686597745
340,klyuchi,52.2667,79.1667,16.6,83,100,5.05,RU,1686597746
341,sinabang,2.4803,96.3801,26.71,80,56,0.27,ID,1686597746
342,rudbar,30.15,62.6,33.01,13,0,4.13,AF,1686597746
343,poyarkovo,49.6,128.6833,14.83,89,49,2.49,RU,1686597746
344,kimbe,-5.5502,150.1429,24.05,93,20,1.73,PG,1686597747
345,crane,31.3974,-102.3501,36.4,11,0,8.64,US,1686597747
346,abu tij,27.0441,31.319,33.84,22,0,2.4,EG,1686597747
347,wewak,-3.5534,143.6268,26.32,88,100,3.56,PG,1686597747
348,fort mcmurray,56.7268,-111.381,21.77,40,40,3.6,CA,1686597748
349,touros,-5.1989,-35.4608,27.62,74,1,6.16,BR,1686597294
350,dudinka,69.4058,86.1778,7.57,78,96,3.94,RU,1686597748
351,murzuq,25.9155,13.9184,32.89,19,0,4.97,LY,1686597296
352,chui,-33.6971,-53.4616,12.77,50,34,5.57,UY,1686597749
353,san pedro,14.35,121.0167,25.75,94,75,0.51,PH,1686597749
354,bereznik,62.8551,42.7072,16.61,58,96,3.44,RU,1686597749
355,xilin hot,43.9667,116.0333,13.2,68,11,1.64,CN,1686597749
356,ghanzi,-21.5667,21.7833,12.97,20,0,5.03,BW,1686597750
357,danilovgrad,42.5538,19.1461,21.87,87,100,3.29,ME,1686597750
358,flin flon,54.7682,-101.865,26.91,36,100,5.66,CA,1686597272
359,north bend,43.4065,-124.2243,20.14,88,100,6.69,US,1686597750
360,broken hill,-31.95,141.4333,9.45,68,71,4.75,AU,1686597473
361,konstantinovka,49.6167,127.9833,15.48,91,24,2.88,RU,1686597751
362,merritt,50.1123,-120.7942,28.51,28,19,0.89,CA,1686597751
363,shalqar,47.8333,59.6,27.3,14,99,4.5,KZ,1686597752
364,camiri,-20.05,-63.5167,11.5,42,100,3.88,BO,1686597752
365,nurota,40.5614,65.6886,26.65,22,0,1.64,UZ,1686597752
366,portland,45.5234,-122.6762,29.15,55,20,2.57,US,1686597752
367,itupiranga,-5.1347,-49.3267,34.18,58,82,1.17,BR,1686597753
368,maloh,9.056,122.9851,27.45,78,8,1.19,PH,1686597753
369,mount pearl,47.5166,-52.7813,8.31,87,100,5.66,CA,1686597730
370,coyuca de catalan,18.3333,-100.65,41.54,22,7,0.47,MX,1686597754
371,burang,30.25,81.1667,6.54,82,56,1.22,CN,1686597754
372,omagh,54.6,-7.3,18.51,93,97,1.03,GB,1686597754
373,rengasdengklok,-6.1592,107.2981,24.96,88,97,2.51,ID,1686597754
374,villa de soto,-30.8552,-64.9995,13.0,22,100,2.86,AR,1686597754
375,kingscliff,-28.2667,153.5667,14.31,100,20,1.54,AU,1686597755
376,kapuskasing,49.4169,-82.4331,22.05,49,75,5.14,CA,1686597755
377,truth or consequences,33.1284,-107.2528,30.13,8,0,7.72,US,1686597755
378,beoumi,7.6736,-5.5764,24.36,86,20,2.05,CI,1686597755
379,tayoltita,24.0833,-105.9333,34.94,22,0,4.06,MX,1686597756
380,punta arenas,-53.15,-70.9167,7.01,70,20,12.86,CL,1686597756
381,novyy urengoy,66.0833,76.6333,3.34,72,100,8.97,RU,1686597756
382,haeju,38.0406,125.7147,15.85,83,82,0.8,KP,1686597599
383,peniche,39.3558,-9.3811,20.06,87,7,7.93,PT,1686597757
384,prince george,53.9166,-122.753,24.69,34,20,2.06,CA,1686597609
385,quang ngai,15.1167,108.8,26.14,83,100,2.1,VN,1686597757
386,tanout,14.9709,8.8879,33.48,33,4,3.16,NE,1686597269
387,copala,16.65,-98.9833,32.62,56,100,4.42,MX,1686597757
388,januaria,-15.4833,-44.3667,32.99,21,13,0.3,BR,1686597689
389,carupano,10.6678,-63.2585,28.4,74,100,4.06,VE,1686597758
390,samalut,28.3121,30.7101,33.01,23,0,3.79,EG,1686597758
391,new norfolk,-42.7826,147.0587,6.62,80,95,1.17,AU,1686597758
392,hun,29.1268,15.9477,29.77,35,0,7.56,LY,1686597759
393,tarawa,1.419,172.984,28.05,89,75,0.51,KI,1686597759
394,jacmel,18.2342,-72.5347,33.91,64,22,4.82,HT,1686597759
395,fale old settlement,-9.3852,-171.2468,28.59,76,8,6.49,TK,1686597759
396,north shore,-36.8,174.75,13.23,77,0,2.24,NZ,1686597760
397,joal-fadiout,14.1667,-16.8333,26.75,78,99,5.68,SN,1686597760
398,pale,43.8161,18.5694,13.86,100,75,1.03,BA,1686597760
399,port blair,11.6667,92.75,27.02,89,75,4.63,IN,1686597761
400,concepcion,-36.827,-73.0498,14.89,47,0,7.2,CL,1686597761
401,mogadishu,2.0371,45.3438,26.21,85,96,8.87,SO,1686597726
402,dame-marie,18.5667,-74.4167,30.04,64,8,2.4,HT,1686597761
403,cole harbour,44.6724,-63.4751,27.98,33,75,5.66,CA,1686597639
404,roma,43.2128,-75.4557,25.08,61,75,5.14,US,1686597667
405,byford,-32.2167,116.0,12.15,92,100,4.63,AU,1686597762
406,nemuro,43.3236,145.575,11.25,99,100,2.52,JP,1686597762
407,pokaran,26.9167,71.9167,35.05,37,21,8.02,IN,1686597762
408,jinghong,21.991,100.7341,22.66,98,100,0.68,CN,1686597763
409,sargatskoye,55.6101,73.4972,9.14,64,100,2.86,RU,1686597763
410,albertville,34.2676,-86.2089,25.25,63,75,4.63,US,1686597629
411,kawm umbu,24.4767,32.9463,35.78,16,0,3.79,EG,1686597321
412,hasaki,35.7333,140.8333,20.68,96,100,5.34,JP,1686597252
413,iwaki,37.05,140.8833,21.54,97,100,2.3,JP,1686597764
414,luganville,-15.5333,167.1667,23.95,89,93,2.15,VU,1686597764
415,spring creek,40.7266,-115.5859,16.89,49,26,1.58,US,1686597764
416,nova sintra,14.8667,-24.7167,21.96,83,24,8.44,CV,1686597764
417,nicoya,10.1483,-85.452,31.59,66,84,0.73,CR,1686597765
418,dwarka,22.2394,68.9678,28.94,82,100,14.5,IN,1686597765
419,whakatane,-37.9585,176.9854,8.27,99,3,4.02,NZ,1686597765
420,araripina,-7.5761,-40.4983,25.18,59,13,4.81,BR,1686597765
421,buka,40.8108,69.1986,27.44,32,92,2.15,UZ,1686597766
422,tecolots,32.5667,-114.9833,29.72,24,0,2.0,MX,1686597766
423,howrah,22.5892,88.3103,29.0,84,40,1.54,IN,1686597766
424,tumut,-35.3,148.2167,7.02,93,38,1.31,AU,1686597766
425,shihezi,44.3,86.0333,21.78,21,100,0.87,CN,1686597766
426,rizokarpaso,35.6,34.375,22.22,76,4,1.87,CY,1686597767
427,smithers,54.7804,-127.1743,21.18,35,75,2.06,CA,1686597611
428,boldumsaz,42.1282,59.671,24.97,13,1,4.46,TM,1686597767
429,aginskoye,51.1,114.53,17.94,43,36,2.29,RU,1686597767
430,boende,-0.2167,20.8667,21.92,96,100,0.44,CD,1686597767
431,ocean shores,46.9737,-124.1563,25.81,81,0,4.63,US,1686597633
432,suva,-18.1416,178.4415,21.71,100,75,1.03,FJ,1686597768
433,trondheim,63.4305,10.3951,16.03,66,100,0.45,NO,1686597768
434,mansa,29.9833,75.3833,36.6,25,1,1.89,IN,1686597768
435,ifanadiana,-21.3,47.6333,16.24,92,12,1.46,MG,1686597769
436,san ignacio,17.1561,-89.0714,39.08,32,0,2.06,BZ,1686597769
437,pacific grove,36.6177,-121.9166,18.57,79,100,3.6,US,1686597769
438,haiku-pauwela,20.9219,-156.3051,27.01,54,20,5.14,US,1686597769
439,kunming,25.0389,102.7183,14.96,88,75,4.0,CN,1686597770
440,monte alegre,-2.0078,-54.0692,30.4,62,88,2.81,BR,1686597770
441,charlotte amalie,18.3419,-64.9307,31.85,58,40,7.2,VI,1686597770
442,maibong,25.3,93.1667,22.41,98,91,1.44,IN,1686597770
443,yeppoon,-23.1333,150.7333,14.88,91,9,2.31,AU,1686597771
444,villanueva,15.3167,-88.0,37.55,41,20,3.09,HN,1686597771
445,cabo san lucas,22.8909,-109.9124,35.34,21,0,2.06,MX,1686597771
446,saint-paul-les-dax,43.7272,-1.0516,22.73,90,78,1.34,FR,1686597771
447,daye,30.0833,114.95,23.29,86,100,0.5,CN,1686597771
448,betioky,-23.7167,44.3833,16.62,94,0,1.17,MG,1686597772
449,glace bay,46.1969,-59.957,25.43,56,75,5.14,CA,1686597689
450,kalmunai,7.4167,81.8167,27.25,79,100,2.41,LK,1686597772
451,hilo,19.7297,-155.09,27.93,73,40,4.02,US,1686597302
452,napier,-39.4833,176.9167,7.38,86,1,1.34,NZ,1686597773
453,kapa'a,22.0752,-159.319,26.99,86,100,5.14,US,1686597773
454,ilula,-7.6766,36.0366,18.3,96,31,2.2,TZ,1686597773
455,la'ie,21.6477,-157.9253,28.98,73,94,2.24,US,1686597773
456,mbandaka,0.0487,18.2603,23.15,89,100,0.74,CD,1686597773
457,ratnagiri,16.9833,73.3,28.46,81,90,6.83,IN,1686597774
458,mahur,25.1667,93.1167,20.26,98,79,0.79,IN,1686597774
459,alness,57.696,-4.2551,17.7,94,100,1.22,GB,1686597774
460,mukalla,14.5425,49.1242,33.49,64,91,1.91,YE,1686597774
461,milford haven,51.7128,-5.0341,20.81,83,71,3.32,GB,1686597689
462,akrehamn,59.2667,5.1833,16.14,48,0,2.06,NO,1686597775
463,buseresere,-3.0236,31.8747,19.91,59,98,0.97,TZ,1686597775
464,gombong,-7.6072,109.5142,24.33,94,99,1.87,ID,1686597775
465,merizo village,13.2658,144.6691,28.31,95,98,6.54,GU,1686597776
466,alesund,62.4723,6.1549,16.51,77,75,2.57,NO,1686597776
467,olinda,-8.0089,-34.8553,27.85,74,40,5.66,BR,1686597776
468,cill airne,52.05,-9.5167,19.08,76,89,2.52,IE,1686597777
469,puerto baquerizo moreno,-0.9,-89.6,27.55,83,75,6.17,EC,1686597777
470,pedernales,18.0384,-71.744,33.55,45,18,9.38,DO,1686597777
471,zouerate,22.7187,-12.4521,34.14,15,0,5.87,MR,1686597777
472,felipe carrillo puerto,19.5833,-88.05,37.74,38,22,3.71,MX,1686597778
473,nchelenge,-9.3451,28.734,21.53,55,32,1.16,ZM,1686597778
474,mili,6.0815,171.735,28.31,81,100,8.55,MH,1686597778
475,mugia,43.1041,-9.2179,17.17,91,100,2.57,ES,1686597276
476,daru,-9.0763,143.2092,25.47,87,100,6.56,PG,1686597778
477,puerto armuelles,8.2833,-82.8667,32.99,74,41,1.34,PA,1686597779
478,westport,41.1415,-73.3579,26.46,75,0,5.14,US,1686597491
479,mokhsogollokh,61.4681,128.9203,5.4,61,100,3.62,RU,1686597779
480,general roca,-39.0333,-67.5833,15.35,29,0,4.29,AR,1686597779
481,troitskoye,52.9821,84.6757,13.59,67,100,2.13,RU,1686597779
482,ola,59.5833,151.2833,8.97,97,100,3.58,RU,1686597780
483,kasama,-10.2129,31.1808,16.94,51,38,1.22,ZM,1686597780
484,belmopan,17.25,-88.7667,39.21,34,82,2.89,BZ,1686597780
485,beloyarskiy,63.7119,66.6722,3.14,69,5,2.0,RU,1686597780
486,laguna,38.421,-121.4238,22.83,59,20,5.14,US,1686597780
487,santo antonio do ica,-3.1022,-67.9397,32.65,53,32,1.45,BR,1686597292
488,calama,-22.4667,-68.9333,17.27,9,0,9.77,CL,1686597758
489,sandnessjoen,66.0217,12.6316,12.29,94,75,5.66,NO,1686597781
490,undurkhaan,47.3194,110.6556,17.77,42,100,1.7,MN,1686597781
491,laojunmiao,39.8333,97.7333,19.27,24,0,4.17,CN,1686597325
492,tabou,4.423,-7.3528,25.78,78,100,4.46,CI,1686597782
493,margate,51.3813,1.3862,19.27,71,62,2.68,GB,1686597742
494,callao,-12.0667,-77.15,23.16,64,20,8.75,PE,1686597710
495,baiao,-2.7906,-49.6717,28.0,81,48,1.27,BR,1686597783
496,suntar,62.1444,117.6319,2.95,74,0,0.95,RU,1686597783
497,aracuai,-16.8497,-42.0703,31.94,25,24,1.18,BR,1686597783
498,shawinigan,46.5668,-72.7491,28.58,41,100,1.54,CA,1686597783
499,holualoa,19.6228,-155.9522,24.91,83,40,3.6,US,1686597784
500,tucuma,-0.1833,-50.05,27.59,84,9,3.45,BR,1686597486
501,lazaro cardenas,17.9583,-102.2,30.99,57,7,4.95,MX,1686597784
502,walvis bay,-22.9575,14.5053,14.49,85,0,7.1,NA,1686597224
503,maumere,-8.6199,122.2111,24.48,81,93,3.87,ID,1686597784
504,siocon,7.7061,122.1353,26.0,85,9,1.81,PH,1686597785
505,ojinaga,29.5667,-104.4167,38.65,19,0,7.2,MX,1686597785
506,dunda,-8.1167,34.25,20.47,62,100,1.56,TZ,1686597785
507,tralee,52.2704,-9.7026,17.53,77,65,2.6,IE,1686597786
508,perdoes,-21.0908,-45.0914,24.75,45,47,2.32,BR,1686597786
509,bealanana,-14.55,48.7333,14.85,94,3,0.68,MG,1686597786
510,phanom thuan,14.1303,99.6986,26.75,75,100,2.45,TH,1686597786
511,namdrik,5.5994,168.1028,28.63,79,100,8.81,MH,1686597787
512,amursk,50.2261,136.8994,9.41,87,0,2.77,RU,1686597266
513,dingli,35.8614,14.3822,21.56,78,0,6.17,MT,1686597787
514,tonota,-21.4833,27.4833,18.77,29,2,3.65,BW,1686597787
515,bamboo flat,11.7,92.7167,27.05,89,75,4.63,IN,1686597788
516,medenine,33.355,10.5055,27.83,41,0,6.05,TN,1686597788
517,simpang,-1.2667,104.0833,24.52,94,19,1.4,ID,1686597788
518,tocopilla,-22.092,-70.1979,18.38,71,15,5.37,CL,1686597113
519,ahar,38.4774,47.0699,20.13,66,9,1.76,IR,1686597789
520,cockburn town,21.4612,-71.1419,28.11,83,86,7.53,TC,1686597702
521,salaga,8.5508,-0.5188,26.38,71,86,2.47,GH,1686597789
522,jorpeland,59.0225,6.0408,18.9,63,25,2.76,NO,1686597789
523,grevena,40.0845,21.4274,16.56,95,100,1.44,GR,1686597789
524,batesville,35.7698,-91.641,24.8,54,0,3.6,US,1686597539
525,ormara,25.2088,64.6357,30.53,68,100,2.47,PK,1686597790
526,mongoumba,3.6415,18.5936,22.25,98,100,1.4,CF,1686597790
527,lincoln city,44.9582,-124.0179,26.14,78,18,4.47,US,1686597790
528,las tablas,7.7667,-80.2833,31.16,64,26,3.22,PA,1686597791
529,amurzet,47.6967,131.0981,13.04,93,24,0.86,RU,1686597791
530,carnarvon,-24.8667,113.6333,15.55,45,0,7.36,AU,1686597791
531,baiyin,36.5583,104.2081,19.15,27,6,1.42,CN,1686597791
532,lieksa,63.3167,30.0167,14.33,57,100,3.91,FI,1686597792
533,mwinilunga,-11.7358,24.4293,21.01,39,100,1.1,ZM,1686597792
534,sungai penuh,-2.0833,101.3833,18.07,96,36,1.28,ID,1686597792
535,enid,36.3956,-97.8784,22.82,66,100,2.57,US,1686597792
536,muynoq,43.7683,59.0214,24.03,45,0,5.0,UZ,1686597792
537,paysandu,-32.3214,-58.0756,12.71,32,0,5.37,UY,1686597712
538,quellon,-43.1167,-73.6167,9.14,66,0,2.57,CL,1686597793
539,santa ana de yacuma,-13.75,-65.4333,13.97,100,100,6.17,BO,1686597793
540,verkhnevilyuysk,63.4453,120.3167,2.86,73,0,1.74,RU,1686597793
541,klaksvik,62.2266,-6.589,10.51,71,0,2.27,FO,1686597793
542,madera,37.1666,-119.8343,25.69,49,66,1.95,US,1686597794
543,bandar lampung,-5.4254,105.258,23.69,94,100,0.75,ID,1686597794
544,puerto aysen,-45.4,-72.7,8.02,66,40,3.09,CL,1686597794
545,orta,40.6242,33.1093,12.19,92,10,2.3,TR,1686597794
546,malinyi,-8.9333,36.1333,20.96,79,30,1.21,TZ,1686597795
547,kiunga,-6.1219,141.2906,22.97,100,100,0.35,PG,1686597208
548,bac lieu,9.285,105.7244,27.81,83,100,3.27,VN,1686597795
549,strezhevoy,60.7333,77.5889,6.59,71,100,5.26,RU,1686597795
550,wenzhou,27.9994,120.6668,23.64,91,95,0.71,CN,1686597796
551,kavaratti,10.5669,72.642,29.47,76,98,9.26,IN,1686597233
552,gulf shores,30.246,-87.7008,34.1,63,40,6.26,US,1686597549
553,ivins,37.1686,-113.6794,25.12,29,98,1.79,US,1686597796
554,kingaroy,-26.5333,151.8333,9.74,96,0,0.83,AU,1686597797
555,usogorsk,63.4106,48.6872,12.92,84,95,2.91,RU,1686597797
556,egilsstadir,65.2653,-14.3948,12.95,54,0,9.26,IS,1686597797
557,antsohihy,-14.8796,47.9875,21.12,84,0,0.72,MG,1686597797
558,mil'kovo,55.6078,37.7956,15.08,61,5,4.31,RU,1686597285
559,pavlodar,52.3,76.95,15.89,55,0,3.0,KZ,1686597798
560,salym,60.0625,71.4789,4.73,89,10,1.21,RU,1686597798
561,zhelezinka,53.54,75.3072,13.09,52,62,3.35,KZ,1686597798
562,mpika,-11.8343,31.4529,15.21,66,89,1.19,ZM,1686597799
563,mahibadhoo,3.7833,72.9667,28.68,78,28,7.14,MV,1686597682
564,aswan,24.0934,32.907,34.97,18,0,2.89,EG,1686597800
565,juan griego,11.0817,-63.9655,28.95,71,100,6.47,VE,1686597800
566,tondano,1.3038,124.9112,20.05,95,100,0.81,ID,1686597800
567,eagle point,42.4726,-122.8028,28.83,40,0,1.54,US,1686597800
568,yazman,29.1212,71.7446,38.73,24,0,8.53,PK,1686597801
569,black river,18.0264,-77.8487,31.73,56,9,8.33,JM,1686597801
570,fisterra,42.9049,-9.2629,17.41,89,100,2.06,ES,1686597801
571,kidal,18.4411,1.4078,31.97,37,37,6.93,ML,1686597301
572,zelino,41.9803,21.0642,15.61,88,100,1.26,MK,1686597802
573,kolonia town,6.964,158.206,28.0,78,100,2.06,FM,1686597802
574,diu,20.7141,70.9822,28.03,87,100,11.59,IN,1686597802
575,porto franco,-6.3383,-47.3992,33.53,38,15,2.67,BR,1686597802
576,paita,-5.0892,-81.1144,26.11,69,0,7.72,PE,1686597803
577,goya,-29.14,-59.2626,14.3,23,0,4.1,AR,1686597803
578,goianesia,-15.3175,-49.1175,29.44,34,82,0.81,BR,1686597803
